npsn,school_name,district_bps_name,village_bps_code,latitude,longitude,internet
20227466,SMAN 11 Garut,Kabupaten Garut,3205190008,-7.2172,107.902,good
20220341,SMAN 10 Bogor,Kota Bogor,3271050015,-6.5599,106.7652,very good
20223032,SMAN 11 Bekasi,Kota Bekasi,3275020001,-6.3437,106.9399,good
20223019,SMAN 10 Bekasi,Kota Bekasi,3275061003,-6.2091,106.9748,good
20231719,SMAN 13 Bekasi,Kota Bekasi,3275040005,-6.2599,107.0202,good
69857938,SMAN 12 Kota Depok,Kota Depok,3276021005,-6.419987,106.795555,good
20262716,SMAN 1 Bantarkalong,Kabupaten Tasikmalaya,3206070010,-7.5769,108.0969,need check
20214970,SMAN 1 Astanajapura,Kabupaten Cirebon,3209080010,-6.7882,108.6181,very good
20210768,SMAN 1 Ciawi,Kabupaten Tasikmalaya,3206260011,-7.1381,108.1441,good
20218357,SMAN 1 Cibarusah,Kabupaten Bekasi,3216030003,-6.4128,107.0842,very good
20231325,SMAN 1 Cigudeg,Kabupaten Bogor,3201270010,-6.5544,106.534,good
20237371,SMAN 1 Cikampek,Kabupaten Karawang,3215072002,-6.4213,107.4728,very good
20206145,SMAN 1 Ciparay,Kabupaten Bandung,3204130004,-7.0537,107.7093,good
69881559,SMAN 1 Cisayong,Kabupaten Tasikmalaya,3206230014,-7.244366,108.127268,need check
20252287,SMAN 1 Cimaragas,Kabupaten Ciamis,3207140004,-7.3707,108.4636,good
20231331,SMAN 1 Gunung Sindur,Kabupaten Bogor,3201250009,-6.3833,106.6595,very good
20217338,SMAN 1 Jatiluhur,Kabupaten Purwakarta,3214010018,-6.5591,107.4285,good
20211490,SMAN 1 Kawali,Kabupaten Ciamis,3207280004,-7.1869,108.3639,good
20217787,SMAN 1 Klari,Kabupaten Karawang,3215040013,-6.360251,107.377953,good
20211502,SMAN 1 Lakbok,Kabupaten Ciamis,3207110008,-7.3879,108.6748,very good
20233752,SMAN 1 Lohbener,Kabupaten Indramayu,3212170009,-6.3981,108.2836,good
20202266,SMAN 1 Nagrak,Kabupaten Sukabumi,3202220004,-6.8645,106.8039,very good
20211503,SMAN 1 Mangunjaya,Kabupaten Pangandaran,3218100003,-7.4904,108.6981,very good
20200887,SMAN 1 Parung Panjang,Kabupaten Bogor,3201300011,-6.3589,106.5832,good
20227901,SMAN 1 Parongpong,Kabupaten Bandung Barat,3217110006,-6.8098,107.5762,very good
20253152,SMAN 1 Sukadana,Kabupaten Ciamis,3207200005,-7.2569,108.4448,very good
20238437,SMAN 1 Sindangkasih,Kabupaten Ciamis,3207160004,-7.3451,108.5,good
20215977,SMAN 1 Sukagumiwang,Kabupaten Indramayu,3212081007,-6.5512,108.35,very good
20221559,SMAN 1 Sukabumi,Kota Sukabumi,3272020003,-6.9388,106.9306,good
20237993,SMAN 1 Tambelang,Kabupaten Bekasi,3216110005,-6.1852,107.1223,very good
20209193,SMAN 20 Garut,Kabupaten Garut,3205110006,-7.4941,107.9148,very good
20214988,SMAN 1 Waled,Kabupaten Cirebon,3209010009,-6.914,108.7154,very good
69964922,SMAN 1 Tirtajaya,Kabupaten Karawang,3215180002,-6.098809,107.253053,good
20217780,SMAN 1 Telukjambe,Kabupaten Karawang,3215031001,-6.3246,107.3053,good
20203723,SMAN 2 Cianjur,Kabupaten Cianjur,3203200009,-6.8242,107.1226,very good
20247316,SMAN 2 Cikampek,Kabupaten Karawang,3215050013,-6.3973,107.4326,very good
20215993,SMAN 2 Indramayu,Kabupaten Indramayu,3212150012,-6.3342,108.3443,very good
20222365,SMAN 2 Cirebon,Kota Cirebon,3274010002,-6.7539,108.5421,very good
69915815,SMAN 2 Telukjambe Timur,Kabupaten Karawang,3215031005,-6.3342,107.282,good
20237996,SMAN 3 Tambun Selatan,Kabupaten Bekasi,3216081009,-6.2263,107.0621,good
20227471,SMAN 5 Garut,Kabupaten Garut,3205070002,-7.6365,107.7316,good
20222367,SMAN 4 Cirebon,Kota Cirebon,3274010003,-6.7487,108.5405,good
20227459,SMAN 7 Garut,Kabupaten Garut,3205030008,-7.4668,107.5941,good
69989079,SMAN 2 Cibarusah,Kabupaten Bekasi,3216030003,-6.4128,107.082,very good
20232466,SMKN 1 Bojong Gede,Kabupaten Bogor,3201220002,-6.4904,106.7717,very good
20244734,SMKN 1 Cibarusah,Kabupaten Bekasi,3216030004,-6.4141,107.1086,good
20255901,SMKN 1 Cikedung,Kabupaten Indramayu,3212040006,-6.4966,108.1869,good
69967710,SMKN 1 Cipongkor,Kabupaten Bandung Barat,3217060008,-6.952685,107.385799,very good
20237464,SMKN 1 Jatisari,Kabupaten Karawang,3215070011,-6.3662,107.5292,good
20229219,SMKN 1 Depok,Kota Depok,3276041002,-6.439918,106.883702,very good
20233758,SMKN 1 Balongan,Kabupaten Indramayu,3212140007,-6.3596,108.3737,very good
20229783,SMKN 1 Rancaekek,Kabupaten Bandung,3204110011,-6.988362,107.806281,very good
20253097,SMKN 1 Rancah,Kabupaten Ciamis,3207180002,-7.2636,108.499,very good
20216005,SMKN 1 Anjatan,Kabupaten Indramayu,3212210013,-6.3307,107.9658,good
20225282,SMKN 1 Banjar,Kota Banjar,3279010005,-7.3707,108.527,very good
20216004,SMKN 1 Indramayu,Kabupaten Indramayu,3212150011,-6.3406,108.338,good
20229784,SMKN 7 Baleendah,Kabupaten Bandung,3204140002,-7.015,107.6515,good
20219141,SMKN 7 Bandung,Kota Bandung,3273090003,-6.9405,107.6602,good
20252324,SMAN 1 Cisaga,Kabupaten Ciamis,3207160004,-7.34994,108.510478,very good
69849086,SMKN Maniis,Kabupaten Purwakarta,3214020003,-6.686948,107.358475,poor
20267759,SMKN Peternakan Lembang,Kabupaten Bandung Barat,3217120012,-6.802,107.6511,very good
20271184,SMKN 1 Gunung Sindur,Kabupaten Bogor,3201250007,-6.3724,106.7087,very good
20217802,SMKN 1 Karawang,Kabupaten Karawang,3215113004,-6.2841,107.2864,good
20227905,SMAN 1 Katapang,Kabupaten Bandung,3204180008,-7.008178,107.557652,very good
20238569,SMAN 1 Sukawangi,Kabupaten Bekasi,3216111005,-6.1129,107.1296,very good
20223818,SMAN 2 Kota Depok,Kota Depok,3276030009,-6.394115,106.849655,good
20233680,SMKN 1 Subang,Kabupaten Subang,3213070005,-6.5559,107.7604,good
69823285,SMAN 3 Babelan,Kabupaten Bekasi,3216090001,-6.1722784,107.0110735,good
20258176,SMKN 5 Kota Bekasi,Kota Bekasi,3275070005,-6.203,107.0187,good
20232374,SMAN 1 Ciomas,Kabupaten Bogor,3201070016,-6.6045,106.7499,very good
20231330,SMAN 1 Gunung Putri,Kabupaten Bogor,3201190004,-6.4268,106.9149,good
20200885,SMAN 1 Cibinong,Kabupaten Bogor,3201210012,-6.470353,106.861807,good
20200676,SMAN 1 Ciampea,Kabupaten Bogor,3201050017,-6.5561,106.6899,very good
20257901,SMKN Pancatengah,Kabupaten Tasikmalaya,3206040005,-7.7002,108.2735,good
20229757,SMKN 1 Cibatu,Kabupaten Purwakarta,3214111006,-6.5137,107.5513,poor
20237377,SMAN 1 Pangkalan,Kabupaten Karawang,3215010014,-6.4955,107.2184,very good
20267642,SMAN 1 Rongga,Kabupaten Bandung Barat,3217010006,-6.9683,107.2964,need check
20218369,SMKN 1 Cikarang Barat,Kabupaten Bekasi,3216071007,-6.2745,107.0896,good
20237988,SMAN 1 Cikarang Timur,Kabupaten Bekasi,3216041005,-6.2745,107.2012,good
20211491,SMAN 1 Baregbeg,Kabupaten Ciamis,3207211002,-7.3152,108.3576,very good
20200604,SMAN 1 Tamansari,Kabupaten Bogor,3201071006,-6.655,106.7484,very good
20217358,SMAN 1 Sukatani,Kabupaten Purwakarta,3214050006,-6.6135,107.4113,very good
20222174,SMKN 1 Cirebon,Kota Cirebon,3274040002,-6.7351,108.5366,good
69753909,SMAN 29 Garut,Kabupaten Garut,3205011006,-7.4713,107.466,need check
20210740,SMAN 1 Singaparna,Kabupaten Tasikmalaya,3206190012,-7.3544,108.1194,good
20244755,SMKN Rajapolah,Kabupaten Tasikmalaya,3206240007,-7.2047,108.1864,very good
20229747,SMAN 1 Sukasari,Kabupaten Purwakarta,3214011004,-6.5382,107.2941,good
20214986,SMAN 1 Karang Wareng,Kabupaten Cirebon,3209051004,-6.8722,108.6583,good
20237989,SMAN 1 Karang Bahagia,Kabupaten Bekasi,3216062006,-6.2071,107.189,very good
20200691,SMAN 2 Cibinong,Kabupaten Bogor,3201210001,-6.522862,106.807865,good
69886260,SMAN 2 Cibinong,Kabupaten Cianjur,3203050005,-7.344779,107.121294,good
20218359,SMAN 1 Babelan,Kabupaten Bekasi,3216090002,-6.1882,107.0345,very good
20254165,SMAN 2 Babelan,Kabupaten Bekasi,3216090002,-6.1952,107.0366,good
20221560,SMAN 2 Sukabumi,Kota Sukabumi,3272040004,-6.9062,106.9166,good
20211509,SMAN 1 Rancah,Kabupaten Ciamis,3207180007,-7.2086,108.5039,very good
20216942,SMAN 1 Kalijati,Kabupaten Subang,3213080005,-6.5488,107.6474,very good
20203739,SMAN 1 Cianjur,Kabupaten Cianjur,3203200008,-6.8256,107.1314,good
20251793,SMAN 1 Cileunyi,Kabupaten Bandung,3204290006,-6.94,107.7233,good
20211578,SMAN 1 Cihaurbeuti,Kabupaten Ciamis,3207230011,-7.195567,108.2004,very good
20220334,SMAN 4 Bogor,Kota Bogor,3271010015,-6.616128,106.800757,good
20211505,SMAN 1 Panawangan,Kabupaten Ciamis,3207270010,-7.091,108.3753,good
20215979,SMAN 1 Jatibarang,Kabupaten Indramayu,3212130004,-6.4635,108.3139,poor
20254612,SMAN 1 Nanggung,Kabupaten Bogor,3201010005,-6.6074,106.537,very good
20214796,SMKN 1 Kedawung,Kabupaten Cirebon,3209162004,-6.711,108.5443,good
20202263,SMAN 1 Jampangkulon,Kabupaten Sukabumi,3202040005,-7.274264,106.623874,very good
20209194,SMAN 21 Garut,Kabupaten Garut,3205020004,-7.2934,107.5293,very good
20227473,SMAN 14 Garut,Kabupaten Garut,3205220006,-7.1556,108.0108,good
20227458,SMAN 19 Garut,Kabupaten Garut,3205160012,-7.2694,107.8141,good
20209236,SMAN 13 Garut,Kabupaten Garut,3205290008,-7.0317,107.9992,very good
20219235,SMAN 17 Bandung,Kota Bandung,3273020004,-6.942,107.5749,good
20219237,SMAN 16 Bandung,Kota Bandung,3273150004,-6.9265,107.6568,good
20276429,SMAN 17 Bekasi,Kota Bekasi,3275050001,-6.2706,106.9643,very good
20231718,SMAN 12 Bekasi,Kota Bekasi,3275060003,-6.2228,106.9728,good
20231322,SMAN 1 Babakan Madang,Kabupaten Bogor,3201140003,-6.573,106.8994,very good
20220342,SMAN 1 Bogor,Kota Bogor,3271040001,-6.5974,106.7933,good
20238516,SMAN 2 Bogor,Kota Bogor,3271060006,-6.5542,106.7942,very good
20223020,SMAN 1 Bekasi,Kota Bekasi,3275040006,-6.2268,107.011,good
20275048,SMAN 16 Bekasi,Kota Bekasi,3275012002,-6.3107,106.9316,good
20237984,SMAN 1 Bojongmangu,Kabupaten Bekasi,3216031003,-6.4328,107.1751,poor
20216938,SMAN 1 Subang,Kabupaten Subang,3213070006,-6.5552,107.7513,good
20217357,SMAN 1 Purwakarta,Kabupaten Purwakarta,3214100006,-6.5604,107.4473,good
20238031,SMKN 1 Babelan,Kabupaten Bekasi,3216090007,-6.1071,107.0534,very good
20271593,SMKN 10 Kota Bekasi,Kota Bekasi,3275012002,-6.3205,106.9345,good
69915809,SMAN 2 Klari,Kabupaten Karawang,3215040013,-6.361677,107.374067,good
69772519,SMKN 1 Binong,Kabupaten Subang,3213170006,-6.4029,107.7932,good
20253277,SMKN 1 Bojong,Kabupaten Purwakarta,3214070008,-6.7068,107.4971,very good
20213887,SMAN 1 Bantarujeg,Kabupaten Majalengka,3210020016,-6.9743,108.2383,very good
20213885,SMAN 1 Jatiwangi,Kabupaten Majalengka,3210140016,-6.7263,108.2742,good
20202317,SMAN 1 Cibadak,Kabupaten Sukabumi,3202210011,-6.896283,106.779967,very good
20202289,SMAN 1 Cicurug,Kabupaten Sukabumi,3202230003,-6.799167,106.779744,good
60726697,SMAN 1 Ciemas,Kabupaten Sukabumi,3202010008,-7.2175,106.4854,poor
20206146,SMAN 1 Cililin,Kabupaten Bandung Barat,3217040003,-6.987,107.4489,very good
20227869,SMAN 1 Cipongkor,Kabupaten Bandung Barat,3217060010,-6.9385,107.3604,good
20206144,SMAN 1 Cipatat,Kabupaten Bandung Barat,3217080002,-6.8402,107.3714,poor
20206227,SMAN 1 Cisarua,Kabupaten Bandung Barat,3217130002,-6.817293,107.548995,good
20251782,SMAN 1 Cikalongwetan,Kabupaten Bandung Barat,3217140002,-6.7626,107.4638,very good
20206131,SMAN 1 Cipeundeuy,Kabupaten Bandung Barat,3217150002,-6.763,107.3659,very good
20252386,SMKN 1 Cibinong,Kabupaten Cianjur,3203050015,-7.309,107.1873,good
20252388,SMKN 1 Bojongpicung,Kabupaten Cianjur,3203160009,-6.852,107.2734,very good
20252563,SMKN 1 Cihampelas,Kabupaten Bandung Barat,3217050017,-6.9334,107.4616,very good
20219326,SMAN 8 Bandung,Kota Bandung,3273070002,-6.9384,107.6258,good
20219327,SMAN 3 Bandung,Kota Bandung,3273170003,-6.9122,107.6149,good
20219257,SMAN 10 Bandung,Kota Bandung,3273210003,-6.9024,107.6434,good
20206209,SMAN 1 Margahayu,Kabupaten Bandung,3204260001,-6.976932,107.568168,very good
20251791,SMAN 1 Banjaran,Kabupaten Bandung,3204160003,-7.0532,107.5895,good
20227903,SMAN 1 Bojongsoang,Kabupaten Bandung,3204280006,-6.981,107.6852,very good
20214969,SMAN 1 Babakan,Kabupaten Cirebon,3209040010,-6.8548,108.7222,good
20214995,SMAN 1 Lemahabang,Kabupaten Cirebon,3209060015,-6.8306,108.6214,very good
20214968,SMAN 1 Beber,Kabupaten Cirebon,3209100011,-6.8321,108.5218,very good
20214980,SMAN 1 Gegesik,Kabupaten Cirebon,3209230012,-6.5995,108.4194,very good
20214965,SMAN 1 Dukupuntang,Kabupaten Cirebon,3209121006,-6.762728,108.44606,good
20222364,SMAN 1 Cirebon,Kota Cirebon,3274050003,-6.710976,108.551441,good
20212953,SMAN 1 Cidahu,Kabupaten Kuningan,3208090003,-6.9809,108.6457,very good
20214967,SMAN 1 Ciledug,Kabupaten Cirebon,3209020012,-6.9102,108.738,very good
20227468,SMAN 10 Garut,Kabupaten Garut,3205250007,-7.1112,107.9517,good
20227470,SMAN 23 Garut,Kabupaten Garut,3205050007,-7.4454,107.6584,very good
20209182,SMAN 18 Garut,Kabupaten Garut,3205200006,-7.2146,107.9455,very good
20210767,SMAN 1 Cikalong,Kabupaten Tasikmalaya,3206030005,-7.7341,108.18,good
20210766,SMAN 1 Cikatomas,Kabupaten Tasikmalaya,3206050004,-7.6108,108.2617,poor
20211563,SMAN 1 Banjarsari,Kabupaten Ciamis,3207100018,-7.5027,108.6316,very good
20227465,SMAN 12 Garut,Kabupaten Garut,3205010006,-7.368065,107.542939,need check
20231334,SMAN 1 Pamijahan,Kabupaten Bogor,3201030005,-6.6685,106.6632,very good
20229167,SMAN 5 Kota Depok,Kota Depok,3276010004,-6.409,106.75992,very good
20200601,SMAN 1 Leuwiliang,Kabupaten Bogor,3201020018,-6.5721,106.6294,good
20270736,SMKN 1 Leuwiliang,Kabupaten Bogor,3201020017,-6.5906,106.6284,very good
20231324,SMAN 1 Cibungbulang,Kabupaten Bogor,3201040003,-6.5874,106.6629,very good
20232377,SMAN 1 Dramaga,Kabupaten Bogor,3201060008,-6.5696,106.74,good
20254135,SMKN 1 Ciomas,Kabupaten Bogor,3201070019,-6.586,106.7586,good
20219144,SMKN 4 Bandung,Kota Bandung,3273070002,-6.9418,107.6285,good
20271050,SMAN 1 Cijeruk,Kabupaten Bogor,3201080012,-6.6949,106.7952,very good
20254098,SMAN 1 Caringin,Kabupaten Bogor,3201090012,-6.7047,106.8248,very good
20219174,SMKN 12 Bandung,Kota Bandung,3273190003,-6.9068,107.5925,good
20231419,SMKN 1 Cariu,Kabupaten Bogor,3201160020,-6.4954,107.1368,good
20200680,SMAN 1 Jonggol,Kabupaten Bogor,3201170006,-6.4824,107.0597,very good
20200681,SMAN 1 Cileungsi,Kabupaten Bogor,3201180018,-6.3941,106.9561,good
20200603,SMAN 1 Citeureup,Kabupaten Bogor,3201200010,-6.5048,106.8882,very good
20270776,SMAN 2 GUNUNG PUTRI,Kabupaten Bogor,3201190009,-6.3643,106.9573,good
20231421,SMKN 1 Gunungputri,Kabupaten Bogor,3201190006,-6.4239,106.9401,good
20231339,SMAN 3 Cibinong,Kabupaten Bogor,3201210002,-6.510813,106.823105,good
69918146,SMAN 4 Cibinong,Kabupaten Bogor,3201210004,-6.486213,106.858278,good
20227487,SMKN 5 Garut,Kabupaten Garut,3205060009,-7.4997,107.6959,need check
20200685,SMAN 1 Ciawi Bogor,Kabupaten Bogor,3201100010,-6.6762,106.8612,good
20232375,SMAN 1 Cisarua,Kabupaten Bogor,3201110008,-6.6661,106.926,good
69772603,SMKN 1 Puncak Cisarua,Kabupaten Bogor,3201110003,-6.6974,106.97,good
20232380,SMAN 1 Megamendung,Kabupaten Bogor,3201120006,-6.678,106.8878,very good
20231337,SMAN 1 Sukaraja,Kabupaten Bogor,3201130006,-6.5848,106.845,good
20232383,SMAN 1 Sukamakmur,Kabupaten Bogor,3201150005,-6.5778,107.0073,poor
20200884,SMAN 1 Cariu,Kabupaten Bogor,3201160017,-6.5235,107.1266,very good
20231420,SMKN 1 Cibinong,Kabupaten Bogor,3201210001,-6.522,106.8077,good
20200602,SMAN 1 Parung,Kabupaten Bogor,3201240014,-6.4369,106.711,very good
20200903,SMAN 1 Rumpin,Kabupaten Bogor,3201270010,-6.5501,106.5344,very good
20200587,SMAN 1 Jasinga,Kabupaten Bogor,3201280012,-6.472,106.4681,poor
20231338,SMAN 1 Tenjo,Kabupaten Bogor,3201290004,-6.348,106.4638,poor
20232376,SMAN 1 Ciseeng,Kabupaten Bogor,3201250003,-6.4006,106.693,very good
20276388,SMAN 1 Klapanunggal,Kabupaten Bogor,3201181006,-6.4522,106.9609,good
20232382,SMAN 1 Sukajaya,Kabupaten Bogor,3201270006,-6.5928,106.5187,good
69754446,SMAN 1 Rancabungur,Kabupaten Bogor,3201231003,-6.5425,106.7171,very good
20232371,SMAN 1 Tajurhalang,Kabupaten Bogor,3201221002,-6.4767,106.757,good
20200886,SMAN 1 Cigombong,Kabupaten Bogor,3201081003,-6.7492,106.8041,good
69752279,SMAN 1 Tenjolaya,Kabupaten Bogor,3201051001,-6.6429,106.6939,very good
20202260,SMAN 1 Ciracap,Kabupaten Sukabumi,3202020003,-7.329879,106.514376,very good
20253979,SMAN 1 Surade,Kabupaten Sukabumi,3202030018,-7.3373,106.5824,very good
20253014,SMKN 1 Surade,Kabupaten Sukabumi,3202030003,-7.367506,106.561311,poor
20253845,SMAN 1 Kalibunder,Kabupaten Sukabumi,3202050004,-7.263216,106.729191,poor
20246472,SMKN 1 Tegalbuleud,Kabupaten Sukabumi,3202060003,-7.3849,106.7431,need check
20202259,SMAN 1 Sagaranten,Kabupaten Sukabumi,3202080010,-7.217,106.8816,very good
20253844,SMKN 1 Sagaranten,Kabupaten Sukabumi,3202080017,-7.1712,106.888,very good
20202265,SMAN 1 Lengkong,Kabupaten Sukabumi,3202100004,-7.1303,106.7039,very good
20202267,SMAN 1 Pelabuhan Ratu,Kabupaten Sukabumi,3202110007,-6.9878,106.5596,very good
20253660,SMKN 1 Palabuhanratu,Kabupaten Sukabumi,3202110007,-6.9774,106.5455,good
20202264,SMAN 1 Jampangtengah,Kabupaten Sukabumi,3202130010,-7.063,106.8127,very good
20202288,SMAN 1 Cikembar,Kabupaten Sukabumi,3202140007,-6.961845,106.784782,good
20252009,SMAN 1 Nyalindung,Kabupaten Sukabumi,3202150003,-7.0329,106.9441,very good
20252841,SMKN 1 Gegerbitung,Kabupaten Sukabumi,3202160003,-6.979553,107.016239,good
20202250,SMAN 1 Sukaraja,Kabupaten Sukabumi,3202170013,-6.913913,106.971547,good
60726515,SMKN 1 Sukabumi,Kabupaten Sukabumi,3202190008,-6.852,106.9393,good
20251778,SMAN 1 Parakansalak,Kabupaten Sukabumi,3202250005,-6.801008,106.709913,good
20202254,SMAN 1 Parung Kuda,Kabupaten Sukabumi,3202260009,-6.834382,106.759418,very good
20252008,SMAN 1 Cikidang,Kabupaten Sukabumi,3202280005,-6.897601,106.650602,good
20202262,SMAN 1 Cisolok,Kabupaten Sukabumi,3202290019,-6.9334,106.4706,very good
20253664,SMAN 1 Kabandungan,Kabupaten Sukabumi,3202300003,-6.788746,106.620155,good
20202261,SMAN 1 Cisaat,Kabupaten Sukabumi,3202201007,-6.925192,106.880712,very good
20253633,SMKN 1 Gunungguruh,Kabupaten Sukabumi,3202201006,-6.943468,106.877167,very good
20267968,SMAN 1 Cikakak,Kabupaten Sukabumi,3202291002,-6.9586,106.4977,good
20202258,SMAN 1 Simpenan,Kabupaten Sukabumi,3202111004,-7.027128,106.567129,very good
20253861,SMKN 9 Garut,Kabupaten Garut,3205150012,-7.2585,107.8439,good
69944078,SMAN 1 Cireunghas,Kabupaten Sukabumi,3202172002,-6.94692,107.02094,good
20258445,SMKN 1 Sukalarang,Kabupaten Sukabumi,3202173004,-6.880592,107.016327,good
20254202,SMKN 1 Bojonggenteng,Kabupaten Sukabumi,3202261002,-6.83759,106.723784,very good
69957429,SMAN 1 Pagelaran,Kabupaten Cianjur,3203100013,-7.1897,107.1463,poor
60726857,SMKN PP Cianjur,Kabupaten Cianjur,3203140007,-6.8545,107.1316,good
20203872,SMKN 1 Cianjur,Kabupaten Cianjur,3203200008,-6.8265,107.1367,good
69755244,SMKN 1 Haurwangi,Kabupaten Cianjur,3203161003,-6.8396,107.2858,very good
20206213,SMAN 1 Ciwidey,Kabupaten Bandung,3204010003,-7.098562,107.464982,good
20206207,SMAN 1 Pangalengan,Kabupaten Bandung,3204040011,-7.172987,107.575693,good
20206215,SMKN 5 Pangalengan,Kabupaten Bandung,3204040011,-7.158518,107.610974,need check
20227906,SMAN 1 Kertasari,Kabupaten Bandung,3204050008,-7.1549,107.6982,very good
20227904,SMAN 1 Cikancung,Kabupaten Bandung,3204090004,-7.026074,107.815524,very good
20251792,SMAN 1 Cicalengka,Kabupaten Bandung,3204100010,-6.9838,107.842,good
20254054,SMAN 1 Rancaekek,Kabupaten Bandung,3204110005,-6.959997,107.76571,very good
20256564,SMKN 1 Majalaya,Kabupaten Bandung,3204120004,-7.061212,107.744713,good
69967685,SMKN 1 Arjasari,Kabupaten Bandung,3204150009,-7.0585,107.6737,good
20206214,SMKN 1 Katapang,Kabupaten Bandung,3204180005,-7.009912,107.547725,very good
20206205,SMAN 1 Soreang,Kabupaten Bandung,3204190007,-7.034485,107.539448,good
20271834,SMKN 1 Soreang,Kabupaten Bandung,3204190007,-7.036813,107.535697,very good
20227907,SMAN 1 Margaasih,Kabupaten Bandung,3204250002,-6.9709,107.5487,good
20227889,SMAN 1 Dayeuhkolot,Kabupaten Bandung,3204270006,-6.9685,107.6341,good
69929705,SMKN 1 Cilengkrang,Kabupaten Bandung,3204300005,-6.8889,107.7202,good
69883580,SMKN 1 Rancabali,Kabupaten Bandung,3204011001,-7.189295,107.282651,very good
20206210,SMAN 1 Majalaya,Kabupaten Bandung,3204121001,-7.0299,107.7699,very good
20208422,SMAN Jatinangor,Kabupaten Sumedang,3211010008,-6.9286,107.7796,very good
20235621,SMAN Cimanggung,Kabupaten Sumedang,3211020004,-6.9569,107.8209,good
20208392,SMAN Tanjungsari,Kabupaten Sumedang,3211030015,-6.897,107.8104,good
20254188,SMK PPN Tanjungsari,Kabupaten Sumedang,3211030008,-6.8991,107.8181,very good
20208408,SMAN Rancakalong,Kabupaten Sumedang,3211040011,-6.8257,107.8498,need check
20208419,SMAN 1 Sumedang,Kabupaten Sumedang,3211050012,-6.8583,107.9214,good
20208420,SMAN 2 Sumedang,Kabupaten Sumedang,3211060013,-6.8485,107.9466,very good
20208421,SMAN 3 Sumedang,Kabupaten Sumedang,3211060011,-6.8441,107.9288,good
20208393,SMKN 1 Sumedang,Kabupaten Sumedang,3211060011,-6.8376,107.9274,good
20208394,SMKN 2 Sumedang,Kabupaten Sumedang,3211060011,-6.8358,107.9284,good
20208391,SMAN Situraja,Kabupaten Sumedang,3211070018,-6.8412,108.0176,good
20235623,SMAN Darmaraja,Kabupaten Sumedang,3211080018,-6.894,108.0551,very good
20235624,SMAN Tomo,Kabupaten Sumedang,3211120008,-6.7637,108.1259,good
20235622,SMAN Conggeang,Kabupaten Sumedang,3211140006,-6.7528,108.0062,poor
20235619,SMAN 1 Cimalaka,Kabupaten Sumedang,3211160022,-6.8049,107.9496,good
20235620,SMAN 2 Cimalaka,Kabupaten Sumedang,3211160022,-6.7958,107.9494,very good
20254838,SMK PP Negeri Sumedang,Kabupaten Sumedang,3211160022,-6.797,107.9496,very good
20251887,SMKN 1 Buahdua,Kabupaten Sumedang,3211180005,-6.7194,107.949,very good
20208423,SMAN Jatinunggal,Kabupaten Sumedang,3211101008,-6.9456,108.1245,very good
20251889,SMKN Sukasari,Kabupaten Sumedang,3211031004,-6.8989,107.7611,good
20262129,SMKN 11 Garut,Kabupaten Garut,3205010009,-7.3747,107.4948,good
69753554,SMKN 13 Garut,Kabupaten Garut,3205040003,-7.3158,107.7078,need check
20227461,SMAN 27 Garut,Kabupaten Garut,3205080003,-7.6779,107.8033,good
69971763,SMAN 31 Garut,Kabupaten Garut,3205080006,-7.6918,107.8898,poor
20209232,SMAN 22 Garut,Kabupaten Garut,3205090006,-7.555,107.8083,good
20227463,SMAN 4 Garut,Kabupaten Garut,3205120004,-7.3652,107.8205,good
69971267,SMAN 32 Garut,Kabupaten Garut,3205130008,-7.4076,107.8835,very good
20215975,SMAN 1 Kroya,Kabupaten Indramayu,3212020006,-6.4975,108.0447,very good
20227464,SMAN 8 Garut,Kabupaten Garut,3205140011,-7.2896,107.8909,need check
20262128,SMKN 10 Garut,Kabupaten Garut,3205140007,-7.2755,107.9179,good
20209237,SMAN 16 Garut,Kabupaten Garut,3205160013,-7.2744,107.778,good
20209213,SMAN 24 Garut,Kabupaten Garut,3205160013,-7.2746,107.7824,good
20227472,SMAN 17 Garut,Kabupaten Garut,3205170023,-7.2041,107.8235,very good
20209208,SMKN 4 Garut,Kabupaten Garut,3205200008,-7.1997,107.9623,good
20227457,SMAN 25 Garut,Kabupaten Garut,3205230007,-7.1706,107.9417,very good
20227488,SMKN 6 Garut,Kabupaten Garut,3205290002,-7.0372,107.9392,very good
20209242,SMKN 8 Garut,Kabupaten Garut,3205300002,-7.0074,108.005,poor
20227469,SMAN 9 Garut,Kabupaten Garut,3205310014,-7.0608,108.0907,good
20262132,SMKN 7 Garut,Kabupaten Garut,3205310015,-7.0444,108.0841,good
20227460,SMAN 28 Garut,Kabupaten Garut,3205011003,-7.5226,107.4871,good
69786423,SMAN 30 Garut,Kabupaten Garut,3205111003,-7.4915,107.861,good
60730359,SMKN 14 Garut,Kabupaten Garut,3205171007,-7.2197,107.8113,very good
20209203,SMKN 2 Garut,Kabupaten Garut,3205182010,-7.189,107.9033,very good
20227474,SMAN 1 Garut,Kabupaten Garut,3205181008,-7.205208,107.90298,good
20209195,SMAN 15 Garut,Kabupaten Garut,3205181005,-7.215235,107.889255,good
20227475,SMAN 6 Garut,Kabupaten Garut,3205181007,-7.196532,107.90644,good
20209201,SMKN 1 Garut,Kabupaten Garut,3205181009,-7.202303,107.89052,good
20254283,SMKN 12 Garut,Kabupaten Garut,3205181009,-7.199798,107.888323,good
20227467,SMAN 2 Garut,Kabupaten Garut,3205240008,-7.1035,107.8986,good
20209202,SMKN 3 Garut,Kabupaten Garut,3205181008,-7.2034,107.9031,good
20209351,SMAN 26 Garut,Kabupaten Garut,3205220009,-7.142498,108.014798,very good
20210764,SMAN 1 Cipatujah,Kabupaten Tasikmalaya,3206010004,-7.7476,108.019,good
69752268,SMKN 2 Cipatujah,Kabupaten Tasikmalaya,3206010006,-7.7702,108.0966,good
20210742,SMAN 1 Karangnunggal,Kabupaten Tasikmalaya,3206020007,-7.6263,108.133,very good
20210711,SMKN Bantarkalong,Kabupaten Tasikmalaya,3206070004,-7.6216,108.1114,very good
69989796,SMK NEGERI BOJONGGAMBIR,Kabupaten Tasikmalaya,3206080008,-7.489,107.962,need check
20210719,SMAN 1 Sodonghilir,Kabupaten Tasikmalaya,3206090004,-7.5016,108.0825,poor
20210718,SMAN 1 Taraju,Kabupaten Tasikmalaya,3206100004,-7.457,107.9998,very good
20268946,SMKN SPP,Kabupaten Tasikmalaya,3206140005,-7.5356,108.3135,poor
20210765,SMAN 1 Cineam,Kabupaten Tasikmalaya,3206150011,-7.3862,108.356,very good
20210741,SMAN 1 Manonjaya,Kabupaten Tasikmalaya,3206160016,-7.3474,108.3005,very good
20244754,SMKN Manonjaya,Kabupaten Tasikmalaya,3206160012,-7.3707,108.2979,very good
69788581,SMAN 2 Singaparna,Kabupaten Tasikmalaya,3206190021,-7.3452,108.1477,very good
20238548,SMAN 1 Cigalontang,Kabupaten Tasikmalaya,3206200007,-7.3526,108.0354,very good
69752263,SMKN Parungponteng,Kabupaten Tasikmalaya,3206061004,-7.5083,108.1502,poor
20210780,SMAN 1 Sariwangi,Kabupaten Tasikmalaya,3206211007,-7.3159,108.0721,very good
69752267,SMKN Puspahiang,Kabupaten Tasikmalaya,3206111004,-7.4338,108.0474,poor
20210763,SMAN 1 Jatiwaras,Kabupaten Tasikmalaya,3206141005,-7.4674,108.2018,very good
69752266,SMKN Karangjaya,Kabupaten Tasikmalaya,3206151003,-7.4314,108.3891,very good
69752264,SMKN Kadipaten,Kabupaten Tasikmalaya,3206261001,-7.1276,108.1467,good
69752261,SMKN Sukaresik,Kabupaten Tasikmalaya,3206271004,-7.1636,108.1837,very good
20255008,SMAN 2 Banjarsari,Kabupaten Ciamis,3207100003,-7.5022,108.5634,very good
20211504,SMAN 1 PAMARICAN,Kabupaten Ciamis,3207120003,-7.4545,108.5072,very good
20251810,SMKN 1 Rajadesa,Kabupaten Ciamis,3207190005,-7.1857,108.433,good
20211565,SMAN 1 Ciamis,Kabupaten Ciamis,3207210008,-7.33083,108.355105,good
20211500,SMAN 2 Ciamis,Kabupaten Ciamis,3207210007,-7.329243,108.346103,good
20211499,SMAN 3 Ciamis,Kabupaten Ciamis,3207210012,-7.319943,108.339162,very good
20211510,SMKN 1 Ciamis,Kabupaten Ciamis,3207210004,-7.32337,108.326685,good
20211512,SMKN 2 Ciamis,Kabupaten Ciamis,3207210012,-7.3214,108.3457,good
20254621,SMKN 1 Cipaku,Kabupaten Ciamis,3207250001,-7.2672,108.3826,poor
20233694,SMKN 1 Kawali,Kabupaten Ciamis,3207280004,-7.1869,108.3626,very good
69759219,SMKN 1 Panjalu,Kabupaten Ciamis,3207290008,-7.0926,108.2764,very good
69968464,SMKN 1 Panumbangan,Kabupaten Ciamis,3207300005,-7.148407,108.210854,good
20263279,SMAN 1 Lumbung,Kabupaten Ciamis,3207160004,-7.3496,108.5109,very good
20246367,SMAN 1 Pasawahan,Kabupaten Kuningan,3208190003,-6.8099,108.434,very good
20263968,SMKN 1 Lemahsugih,Kabupaten Majalengka,3210010012,-6.9829,108.2082,very good
20213873,SMAN 1 Cikijing,Kabupaten Majalengka,3210030020,-7.0284,108.3436,very good
20213891,SMAN 1 Talaga,Kabupaten Majalengka,3210040010,-6.9851,108.3186,good
20213872,SMKN 1 Talaga,Kabupaten Majalengka,3210040006,-6.9817,108.3104,good
20213894,SMAN 1 Maja,Kabupaten Majalengka,3210060008,-6.8891,108.304,good
20213857,SMKN 1 Maja,Kabupaten Majalengka,3210060008,-6.8899,108.3065,very good
20213893,SMAN 1 Majalengka,Kabupaten Majalengka,3210070012,-6.8334,108.2163,good
20213889,SMAN 2 Majalengka,Kabupaten Majalengka,3210070012,-6.836,108.229,good
20213853,SMKN 1 Majalengka,Kabupaten Majalengka,3210080007,-6.8246,108.2499,good
20213892,SMAN 1 Sukahaji,Kabupaten Majalengka,3210090012,-6.8187,108.2827,good
20213886,SMAN 1 Rajagaluh,Kabupaten Majalengka,3210100011,-6.7767,108.3419,good
20258140,SMAN 1 Sindangwangi,Kabupaten Majalengka,3210110005,-6.7778,108.3828,very good
20213896,SMAN 1 Leuwimunding,Kabupaten Majalengka,3210100011,-6.7767,108.3419,good
69944965,SMKN 1 Leuwimunding,Kabupaten Majalengka,3210120012,-6.7403,108.3459,good
20247197,SMKN 1 Palasah,Kabupaten Majalengka,3210130007,-6.7229,108.2952,very good
20247198,SMKN 1 Panyingkiran,Kabupaten Majalengka,3210160008,-6.8013,108.1851,good
20213897,SMAN 1 Kadipaten,Kabupaten Majalengka,3210170001,-6.7724,108.1735,very good
20213871,SMKN 1 Kadipaten,Kabupaten Majalengka,3210170001,-6.7847,108.1715,very good
20263964,SMKN 1 Kertajati,Kabupaten Majalengka,3210180007,-6.6728,108.192,good
20213884,SMAN 1 Jatitujuh,Kabupaten Majalengka,3210190009,-6.6577,108.2266,very good
20213895,SMAN 1 Ligung,Kabupaten Majalengka,3210200010,-6.6521,108.2793,very good
20247182,SMAN 1 Sumberjaya,Kabupaten Majalengka,3210210008,-6.703,108.3499,very good
69812059,SMKN 1 Malausma,Kabupaten Majalengka,3210021003,-7.0397,108.248,very good
20213883,SMAN 1 Kasokandel,Kabupaten Majalengka,3210151009,-6.7556,108.2065,good
20214993,SMAN 1 Losari,Kabupaten Cirebon,3209030013,-6.8419,108.8076,good
20214989,SMAN 1 Sumber,Kabupaten Cirebon,3209120015,-6.761128,108.479045,good
20214985,SMAN 1 Palimanan,Kabupaten Cirebon,3209130010,-6.7159,108.4281,very good
20214990,SMAN 1 Plumbon,Kabupaten Cirebon,3209140023,-6.6937,108.4794,very good
69969195,SMAN 1 Kapetakan,Kabupaten Cirebon,3209180015,-6.5927,108.5132,poor
20214971,SMAN 1 Arjawinangun,Kabupaten Cirebon,3209200011,-6.6395,108.4049,very good
20214966,SMAN 1 Ciwaringin,Kabupaten Cirebon,3209210010,-6.661,108.3937,very good
20244680,SMAN 1 Susukan,Kabupaten Cirebon,3209220007,-6.624,108.3769,good
20214794,SMKN 1 Susukan,Kabupaten Cirebon,3209220003,-6.6547,108.3723,very good
20214992,SMAN 1 Pabedilan,Kabupaten Cirebon,3209031013,-6.8399,108.7509,very good
20253778,SMKN 1 Gebang,Kabupaten Cirebon,3209041010,-6.8243,108.7341,very good
20268734,SMKN 1 Gunung Jati,Kabupaten Cirebon,3209171012,-6.6563,108.5149,very good
20214981,SMAN 1 Suranenggala,Kabupaten Cirebon,3209181007,-6.628,108.5092,good
20214996,SMAN 1 Jamblang,Kabupaten Cirebon,3209191005,-6.699,108.4525,good
20244699,SMKN 1 Jamblang,Kabupaten Cirebon,3209191005,-6.7007,108.4526,good
20215981,SMAN 1 Haurgeulis,Kabupaten Indramayu,3212010009,-6.4655,107.9306,very good
20254099,SMKN 1 Gabuswetan,Kabupaten Indramayu,3212030007,-6.4265,108.0958,good
20216002,SMKN 1 Lelea,Kabupaten Indramayu,3212090011,-6.4723,108.4996,need check
20271071,SMKN 1 Widasari,Kabupaten Indramayu,3212070007,-6.4868,108.2722,poor
20215976,SMAN 1 Krangkeng,Kabupaten Indramayu,3212090010,-6.4964,108.4771,very good
20241355,SMKN 1 Krangkeng,Kabupaten Indramayu,3212090003,-6.521,108.4914,very good
20264424,SMAN 1 Juntinyuat,Kabupaten Indramayu,3212110006,-6.4291,108.4372,good
20215992,SMAN 1 Sliyeg,Kabupaten Indramayu,3212101007,-6.4859,108.3903,good
20233761,SMKN 1 Jatibarang,Kabupaten Indramayu,3212130009,-6.4273,108.2974,very good
20215980,SMAN 1 Indramayu,Kabupaten Indramayu,3212150007,-6.3536,108.3235,very good
20215997,SMKN 2 Indramayu,Kabupaten Indramayu,3212150017,-6.3126,108.3371,good
20215991,SMAN 1 Sindang,Kabupaten Indramayu,3212160013,-6.3299,108.32,very good
20215998,SMKN 1 Sindang,Kabupaten Indramayu,3212160012,-6.3361,108.3039,need check
20215974,SMAN 1 Losarang,Kabupaten Indramayu,3212180010,-6.3883,108.1454,good
20216001,SMKN 1 Losarang,Kabupaten Indramayu,3212180012,-6.3904,108.1445,good
20215978,SMAN 1 Kandanghaur,Kabupaten Indramayu,3212190005,-6.361,108.1128,good
20216003,SMKN 1 Kandanghaur,Kabupaten Indramayu,3212190009,-6.3463,108.0991,very good
69768187,SMAN 1 Bongas,Kabupaten Indramayu,3212200005,-6.3764,108.0115,very good
20233759,SMKN 1 Bongas,Kabupaten Indramayu,3212200003,-6.3811,108.0307,very good
20215984,SMAN 1 Anjatan,Kabupaten Indramayu,3212210007,-6.3738,107.9574,good
20255284,SMKN 1 Sukra,Kabupaten Indramayu,3212220006,-6.3112,107.962,good
20271076,SMKN 1 Arahan,Kabupaten Indramayu,3212171004,-6.3581,108.2712,good
20252460,SMAN 1 Gantar,Kabupaten Indramayu,3212011004,-6.5099,107.9724,very good
20233760,SMKN 1 Gantar,Kabupaten Indramayu,3212011004,-6.5059,107.9661,good
20215982,SMAN 1 Terisi,Kabupaten Indramayu,3212041006,-6.4737,108.1731,good
20271070,SMKN 1 Terisi,Kabupaten Indramayu,3212041008,-6.4586,108.1622,very good
20264425,SMAN 1 Kedokanbunder,Kabupaten Indramayu,3212101006,-6.4941,108.4006,good
20215983,SMAN 1 Tukdana,Kabupaten Indramayu,3212061006,-6.5524,108.2809,very good
20271077,SMKN 1 Patrol,Kabupaten Indramayu,3212221005,-6.3108,108.0091,very good
20216943,SMAN 1 Jalancagak,Kabupaten Subang,3213020007,-6.6737,107.6633,very good
20233656,SMAN 1 Tanjungsiang,Kabupaten Subang,3213040009,-6.7286,107.8113,good
20216937,SMAN 2 Subang,Kabupaten Subang,3213070006,-6.5475,107.737,good
20216952,SMAN 3 Subang,Kabupaten Subang,3213070002,-6.5757,107.7666,good
20217028,SMKN 2 Subang,Kabupaten Subang,3213070005,-6.569,107.7405,good
20216944,SMAN 1 Cipeundeuy,Kabupaten Subang,3213090008,-6.486,107.5907,very good
20264741,SMKN 1 Cipeundeuy,Kabupaten Subang,3213090009,-6.4641,107.6311,very good
20245860,SMAN 1 Pabuaran,Kabupaten Subang,3213100006,-6.4469,107.599,poor
20233657,SMAN 1 Patokbeusi,Kabupaten Subang,3213110005,-6.3762,107.586,good
69757494,SMKN 1 Patokbeusi,Kabupaten Subang,3213110005,-6.374665,107.586165,good
69757493,SMKN 1 Cikaum,Kabupaten Subang,3213130004,-6.4242,107.7444,need check
20216941,SMAN 1 Pagaden,Kabupaten Subang,3213140017,-6.4629,107.819,very good
69972642,SMAN 2 Pagaden,Kabupaten Subang,3213140007,-6.470962,107.812678,good
20233677,SMKN 1 Cipunagara,Kabupaten Subang,3213150004,-6.4688,107.8819,good
20233653,SMAN 1 Compreng,Kabupaten Subang,3213160007,-6.3733,107.8817,very good
20216945,SMAN 1 Ciasem,Kabupaten Subang,3213180001,-6.3433,107.6565,good
69772518,SMKN 1 Ciasem,Kabupaten Subang,3213110008,-6.341654,107.635102,need check
20216940,SMAN 1 Pamanukan,Kabupaten Subang,3213190007,-6.286,107.8088,good
20233654,SMAN 1 Pusakanagara,Kabupaten Subang,3213200010,-6.274963,107.876274,good
69757495,SMKN 1 Legonkulon,Kabupaten Subang,3213210003,-6.223,107.7931,need check
20233652,SMAN 1 Blanakan,Kabupaten Subang,3213220006,-6.2834,107.6681,good
69757496,SMKN 1 Dawuan,Kabupaten Subang,3213081003,-6.5667,107.69,poor
20233655,SMAN 1 Serang Panjang,Kabupaten Subang,3213010006,-6.6753,107.6448,poor
20233679,SMKN 1 Pusakanagara,Kabupaten Subang,3213200009,-6.2862,107.8713,good
20251911,SMAN 1 Maniis,Kabupaten Purwakarta,3214020002,-6.7069,107.3133,good
20217359,SMAN 1 Tegalwaru,Kabupaten Purwakarta,3214030001,-6.6537,107.329,very good
69849087,SMKN Tegalwaru,Kabupaten Purwakarta,3214030011,-6.612003,107.331896,good
69848997,SMAN 1 Plered,Kabupaten Purwakarta,3214040004,-6.6533,107.3927,very good
20229659,SMKN 1 Plered,Kabupaten Purwakarta,3214040001,-6.6676,107.371,poor
69858458,SMAN 2 Sukatani,Kabupaten Purwakarta,3214050011,-6.588602,107.378498,very good
69774530,SMKN 1 Sukatani,Kabupaten Purwakarta,3214050006,-6.6212,107.4129,good
69849090,SMKN 3 Sukatani,Kabupaten Purwakarta,3214050009,-6.6093,107.3922,very good
20217408,SMAN 1 Darangdan,Kabupaten Purwakarta,3214060005,-6.6985,107.4473,good
20229746,SMAN 1 Pasawahan,Kabupaten Purwakarta,3214090020,-6.5868,107.4749,very good
20217361,SMAN 2 Purwakarta,Kabupaten Purwakarta,3214112001,-6.5136,107.4662,good
20217363,SMAN 3 Purwakarta,Kabupaten Purwakarta,3214100009,-6.5422,107.4392,very good
20229756,SMKN 2 Purwakarta,Kabupaten Purwakarta,3214100007,-6.5471,107.4424,good
20254043,SMAN 1 Campaka,Kabupaten Purwakarta,3214110011,-6.51,107.4832,good
69849085,SMKN Kiarapedes,Kabupaten Purwakarta,3214081004,-6.643938,107.572962,good
69849088,SMAN Babakancikao,Kabupaten Purwakarta,3214101007,-6.5026,107.4112,very good
20217367,SMKN 1 Purwakarta,Kabupaten Purwakarta,3214101005,-6.5147,107.4296,good
20217479,SMAN 1 Cibatu,Kabupaten Purwakarta,3214111009,-6.5018,107.5343,good
69849082,SMKN Bungursari,Kabupaten Purwakarta,3214112006,-6.446561,107.474357,very good
20237453,SMAN 1 Ciampel,Kabupaten Karawang,3215020005,-6.3912,107.3626,very good
60728564,SMKN 1 Klari,Kabupaten Karawang,3215040003,-6.412155,107.377235,good
20218376,SMKN 1 Tambelang,Kabupaten Bekasi,3216110005,-6.1954,107.1213,good
20217360,SMAN 1 Wanayasa,Kabupaten Purwakarta,3214080016,-6.6652,107.5488,good
69915812,SMAN 3 Cikampek,Kabupaten Karawang,3215050013,-6.3954,107.4323,very good
20217803,SMKN 1 Cikampek,Kabupaten Karawang,3215072009,-6.3913,107.4636,good
20270735,SMKN 1 Tirtamulya,Kabupaten Karawang,3215060005,-6.3639,107.4513,very good
20254052,SMKN 1 Pebayuran,Kabupaten Bekasi,3216130011,-6.1179,107.2655,good
20219324,SMAN 9 Bandung,Kota Bandung,3273190004,-6.901,107.5858,good
69964626,SMAN 1 Banyusari,Kabupaten Karawang,3215070011,-6.3666,107.5292,good
20217785,SMAN 1 Jatisari,Kabupaten Karawang,3215070011,-6.3666,107.5292,good
20237376,SMAN 1 Lemahabang,Kabupaten Karawang,3215100005,-6.295833,107.436555,very good
20217781,SMAN 1 Telagasari,Kabupaten Karawang,3215100002,-6.2893,107.3934,good
69734347,SMAN 1 Rawamerta,Kabupaten Karawang,3215140001,-6.1988,107.3535,very good
60728562,SMKN 1 Rawamerta,Kabupaten Karawang,3215120010,-6.2195,107.3654,very good
20217762,SMAN 1 Tempuran,Kabupaten Karawang,3215130006,-6.1888,107.4532,very good
20237379,SMAN 1 Rengasdengklok,Kabupaten Karawang,3215140012,-6.1571,107.3271,good
20237465,SMKN 1 Rengasdengklok,Kabupaten Karawang,3215150005,-6.1785,107.2955,very good
20217788,SMAN 1 Pedes,Kabupaten Karawang,3215160006,-6.1083,107.3639,very good
69904549,SMAN 1 Cibuaya,Kabupaten Karawang,3215170010,-6.0233,107.392,poor
69734356,SMKN 1 Tirtajaya,Kabupaten Karawang,3215180002,-6.1004,107.2515,good
20237370,SMAN 1 Batujaya,Kabupaten Karawang,3215190001,-6.1057,107.2521,very good
69816446,SMKN 1 Pakisjaya,Kabupaten Karawang,3215190008,-6.0494,107.1738,poor
69915810,SMAN 1 Majalaya,Kabupaten Karawang,3215111005,-6.3283,107.3515,very good
60728563,SMKN 1 Banyusari,Kabupaten Karawang,3215081003,-6.2742000000000004,107.5634,very good
20217784,SMAN 1 Cilamaya,Kabupaten Karawang,3215081007,-6.229,107.5544,very good
20237410,SMKN 1 Cilamaya,Kabupaten Karawang,3215081007,-6.2422,107.577,good
69734348,SMAN 1 Telukjambe Barat,Kabupaten Karawang,3215032003,-6.3617,107.2336,good
20217763,SMAN 2 Karawang,Kabupaten Karawang,3215112006,-6.2923,107.3298,good
20237386,SMAN 5 Karawang,Kabupaten Karawang,3215113002,-6.3039,107.3067,good
20237414,SMKN 3 Karawang,Kabupaten Karawang,3215112003,-6.3366,107.3471,very good
60728565,SMKN Pertanian,Kabupaten Karawang,3215112001,-6.3191,107.3226,good
69915817,SMAN 1 Tegalwaru,Kabupaten Karawang,3215011007,-6.5069,107.2254,very good
20217786,SMAN 1 Karawang,Kabupaten Karawang,3215113002,-6.3003,107.302,good
20217764,SMAN 3 Karawang,Kabupaten Karawang,3215113006,-6.2962,107.2983,good
20217765,SMAN 4 Karawang,Kabupaten Karawang,3215113006,-6.3002,107.3006,good
69904548,SMAN 6 Karawang,Kabupaten Karawang,3215113006,-6.2924,107.2983,good
20217801,SMKN 2 Karawang,Kabupaten Karawang,3215113006,-6.2958,107.2995,good
20237992,SMAN 1 Setu,Kabupaten Bekasi,3216010013,-6.3208,107.0467,good
20238033,SMKN 1 Setu,Kabupaten Bekasi,3216010008,-6.3518,107.0293,very good
20237990,SMAN 1 Kedungwaringin,Kabupaten Bekasi,3216050003,-6.2689,107.268,good
20237985,SMAN 1 Cibitung,Kabupaten Bekasi,3216070014,-6.2538,107.0958,good
69990565,SMAN 4 Babelan,Kabupaten Bekasi,3216090005,-6.1577536,107.0386035,need check
20218365,SMAN 1 Tarumajaya,Kabupaten Bekasi,3216100003,-6.1387,107,good
20244766,SMKN 1 Tarumajaya,Kabupaten Bekasi,3216100006,-6.1004,106.9949,very good
20218353,SMAN 1 Sukatani,Kabupaten Bekasi,3216120006,-6.1653,107.1786,very good
20237994,SMAN 2 Sukatani,Kabupaten Bekasi,3216120005,-6.1946,107.1727,very good
20218354,SMAN 1 Pebayuran,Kabupaten Bekasi,3216130008,-6.161,107.2491,very good
20218358,SMAN 1 Cabangbungin,Kabupaten Bekasi,3216140007,-6.0599,107.127,very good
20237991,SMAN 1 Muaragembong,Kabupaten Bekasi,3216150002,-6.0066,107.028,poor
20218351,SMAN 1 Tambun Selatan,Kabupaten Bekasi,3216081004,-6.2715,107.0661,good
20218379,SMAN 2 Tambun Selatan,Kabupaten Bekasi,3216081004,-6.2696,107.0557,good
20237997,SMAN 4 Tambun Selatan,Kabupaten Bekasi,3216081010,-6.2246,107.0835,very good
20237998,SMAN 5 Tambun Selatan,Kabupaten Bekasi,3216081002,-6.2851,107.0389,good
69821180,SMAN 6 Tambun Selatan,Kabupaten Bekasi,3216081001,-6.2594,107.0459,very good
69982031,SMAN 8 Tambun Selatan,Kabupaten Bekasi,3216081010,-6.23389,107.067879,good
69759066,SMKN 1 Tambun Selatan,Kabupaten Bekasi,3216081006,-6.2481,107.0461,good
20218364,SMAN 1 Tambun Utara,Kabupaten Bekasi,3216082005,-6.1882,107.0496,good
20237995,SMAN 2 Tambun Utara,Kabupaten Bekasi,3216082001,-6.2332,107.0506,good
20245436,SMKN 1 Tambun Utara,Kabupaten Bekasi,3216082007,-6.1911,107.0666,very good
20237986,SMAN 1 Cikarang Barat,Kabupaten Bekasi,3216071010,-6.26,107.125,good
69964653,SMAN 2 Cikarang Barat,Kabupaten Bekasi,3216071010,-6.2551,107.1156,very good
20218377,SMKN 2 Cikarang Barat,Kabupaten Bekasi,3216071011,-6.265,107.1355,good
20218356,SMAN 1 Cikarang Utara,Kabupaten Bekasi,3216061009,-6.2484,107.1589,good
20253190,SMAN 2 Cikarang Utara,Kabupaten Bekasi,3216061005,-6.2742000000000004,107.1739,very good
20245434,SMAN 3 Cikarang Utara,Kabupaten Bekasi,3216061011,-6.2657,107.1868,very good
20247250,SMKN 1 Cikarang Utara,Kabupaten Bekasi,3216061010,-6.2503,107.1763,good
20218378,SMAN 1 Cikarang Selatan,Kabupaten Bekasi,3216023005,-6.3341,107.1194,good
69772703,SMAN 2 Cikarang Selatan,Kabupaten Bekasi,3216023003,-6.3539,107.1086,good
20238032,SMKN 1 Cikarang Selatan,Kabupaten Bekasi,3216023002,-6.3524,107.1059,very good
20237987,SMAN 1 Cikarang Pusat,Kabupaten Bekasi,3216022006,-6.3151,107.1643,good
20245433,SMAN 2 Cikarang Pusat,Kabupaten Bekasi,3216022002,-6.375843,107.163929,very good
20244820,SMKN 1 Cikarang Pusat,Kabupaten Bekasi,3216022003,-6.3814,107.2055,very good
20244763,SMAN 1 Sukakarya,Kabupaten Bekasi,3216121002,-6.1735,107.2179,very good
20238568,SMAN 1 Serang Baru,Kabupaten Bekasi,3216021003,-6.4028,107.1115,very good
20227909,SMAN 1 Sindangkerta,Kabupaten Bandung Barat,3217030009,-6.9899,107.3934,very good
20227902,SMAN 1 Batujajar,Kabupaten Bandung Barat,3217070001,-6.9296,107.505,good
20206208,SMAN 1 Padalarang,Kabupaten Bandung Barat,3217090006,-6.8432,107.4759,good
20227910,SMAN 2 Padalarang,Kabupaten Bandung Barat,3217090005,-6.8527,107.4759,good
20206224,SMKN 4 Padalarang,Kabupaten Bandung Barat,3217090004,-6.8487,107.4925,good
20251847,SMAN 1 Langkaplancar,Kabupaten Pangandaran,3218040008,-7.5027,108.4216,very good
20256282,SMKN 1 Padaherang,Kabupaten Pangandaran,3218090006,-7.5565,108.6945,very good
20211506,SMAN 1 Pangandaran,Kabupaten Pangandaran,3218070004,-7.6767,108.6749,very good
20211508,SMAN 1 Parigi,Kabupaten Pangandaran,3218050001,-7.7071,108.4967,good
20219244,SMAN 18 Bandung,Kota Bandung,3273030001,-6.9386,107.5853,very good
20219243,SMAN 11 Bandung,Kota Bandung,3273060003,-6.9435,107.6172,good
20219250,SMAN 22 Bandung,Kota Bandung,3273070002,-6.9421,107.6311,good
20219316,SMAN 7 Bandung,Kota Bandung,3273070007,-6.9232,107.615,good
20219159,SMKN 15 Bandung,Kota Bandung,3273070005,-6.9228,107.6185,good
20219145,SMKN 3 Bandung,Kota Bandung,3273070002,-6.9394,107.6268,very good
20219140,SMKN 8 Bandung,Kota Bandung,3273070002,-6.9402,107.6289,very good
20219251,SMAN 21 Bandung,Kota Bandung,3273090002,-6.9573,107.6716,very good
20219176,SMKN 10 Bandung,Kota Bandung,3273090001,-6.9629,107.6585,good
20219161,SMKN 13 Bandung,Kota Bandung,3273090004,-6.9404,107.657,good
20219160,SMKN 14 Bandung,Kota Bandung,3273090001,-6.9643,107.6584,good
20219139,SMKN 9 Bandung,Kota Bandung,3273090004,-6.9403,107.657,good
20219247,SMAN 25 Bandung,Kota Bandung,3273100006,-6.9661,107.6656,good
20219233,SMAN 26 Bandung,Kota Bandung,3273110004,-6.9173,107.7253,good
20211511,SMKN 1 Pangandaran,Kabupaten Pangandaran,3218070002,-7.6823,108.6468,good
20219248,SMAN 24 Bandung,Kota Bandung,3273120007,-6.9084,107.6884,good
20219241,SMAN 12 BANDUNG,Kota Bandung,3273150002,-6.941,107.6459,good
20219309,SMAN 5 Bandung,Kota Bandung,3273170003,-6.912,107.6154,good
20219178,SMKN 1 Bandung,Kota Bandung,3273170004,-6.9132,107.6089,good
20219240,SMAN 13 Bandung,Kota Bandung,3273180001,-6.9035,107.5651,good
20219312,SMAN 4 Bandung,Kota Bandung,3273180006,-6.9194,107.5983,good
20219306,SMAN 6 Bandung,Kota Bandung,3273190001,-6.9113,107.5978,good
20219175,SMKN 11 Bandung,Kota Bandung,3273190006,-6.8908,107.5585,very good
20219253,SMAN 20 Bandung,Kota Bandung,3273200002,-6.9045,107.6224,good
20219146,SMKN 2 Bandung,Kota Bandung,3273200003,-6.906,107.6234,very good
20219239,SMAN 14 Bandung,Kota Bandung,3273210002,-6.9029,107.6355,good
20219143,SMKN 5 Bandung,Kota Bandung,3273210006,-6.9001,107.6469,good
20219271,SMAN 1 Bandung,Kota Bandung,3273230002,-6.8954,107.6125,very good
20219246,SMAN 19 Bandung,Kota Bandung,3273230006,-6.8734,107.6168,very good
20219238,SMAN 15 Bandung,Kota Bandung,3273250002,-6.8727,107.5869,good
20265516,SMAN 27 Bandung,Kota Bandung,3273101002,-6.9592,107.7073,very good
20219142,SMKN 6 Bandung,Kota Bandung,3273101003,-6.9404,107.6805,good
20219249,SMAN 23 Bandung,Kota Bandung,3273141003,-6.9128,107.665,good
20258095,SMKN 4 Bogor,Kota Bogor,3271010009,-6.641073,106.824808,very good
20220332,SMAN 3 Bogor,Kota Bogor,3271020005,-6.607233,106.810992,good
20220336,SMAN 7 BOGOR,Kota Bogor,3271030002,-6.5781,106.8143,good
20220337,SMAN 8 Bogor,Kota Bogor,3271030008,-6.5448,106.82,very good
20220274,SMKN 2 Bogor,Kota Bogor,3271030003,-6.5528,106.8251,good
20220338,SMAN 9 Bogor,Kota Bogor,3271040011,-6.5926,106.7884,good
20220275,SMKN 3 Bogor,Kota Bogor,3271010005,-6.655155,106.828726,very good
20238517,SMAN 5 Bogor,Kota Bogor,3271050006,-6.5855,106.7839,good
20220335,SMAN 6 Bogor,Kota Bogor,3271060004,-6.5719,106.7988,good
20220273,SMKN 1 Bogor,Kota Bogor,3271060004,-6.5694,106.8033,good
20221569,SMKN 2 Sukabumi,Kota Sukabumi,3272020001,-6.9349,106.9264,good
20221561,SMAN 3 Sukabumi,Kota Sukabumi,3272050006,-6.9206,106.9445,good
20221562,SMAN 4 Sukabumi,Kota Sukabumi,3272050006,-6.9211,106.9445,good
20221568,SMKN 1 Sukabumi,Kota Sukabumi,3272050004,-6.91,106.932,good
20221570,SMKN 3 Sukabumi,Kota Sukabumi,3272050004,-6.905,106.9304,good
20253907,SMKN 4 Sukabumi,Kota Sukabumi,3272011001,-6.9615,106.8952,very good
20221563,SMAN 5 Sukabumi,Kota Sukabumi,3272010008,-6.9532,106.9317,good
20222366,SMAN 3 Cirebon,Kota Cirebon,3274010005,-6.7495,108.5609,good
20222167,SMAN 9 Cirebon,Kota Cirebon,3274010002,-6.7571,108.5491,good
20222166,SMAN 8 Cirebon,Kota Cirebon,3274020001,-6.7322,108.5719,good
20222384,SMAN 5 Cirebon,Kota Cirebon,3274010003,-6.744,108.5476,very good
20222149,SMAN 7 Cirebon,Kota Cirebon,3274010003,-6.7537,108.5323,very good
20222175,SMKN 2 Cirebon,Kota Cirebon,3274010002,-6.7435,108.5492,good
20222311,SMAN 6 Cirebon,Kota Cirebon,3274050003,-6.7104,108.5514,good
20223044,SMAN 5 Bekasi,Kota Bekasi,3275010009,-6.2736,106.9223,good
69973604,SMAN 22 Kota Bekasi,Kota Bekasi,3275030004,-6.3101,106.9828,good
20231741,SMKN 2 Kota Bekasi,Kota Bekasi,3275030001,-6.3559,106.992,very good
69760562,SMAN 18 Bekasi,Kota Bekasi,3275040008,-6.2376,107.036,very good
20223033,SMAN 2 Bekasi,Kota Bekasi,3275050007,-6.240123,106.990858,very good
20223046,SMAN 3 Bekasi,Kota Bekasi,3275050003,-6.266577,106.975272,good
20223041,SMAN 8 Bekasi,Kota Bekasi,3275050003,-6.2661,106.9824,good
20271648,SMKN 9 Kota Bekasi,Kota Bekasi,3275050001,-6.270858,106.959492,good
20223136,SMKN 1 Kota Bekasi,Kota Bekasi,3275060002,-6.2287,106.9568,good
20231720,SMAN 14 Bekasi,Kota Bekasi,3275070002,-6.1965,107.0085,good
20223045,SMAN 4 Bekasi,Kota Bekasi,3275050003,-6.2506,106.9774,very good
20223042,SMAN 7 Bekasi,Kota Bekasi,3275050003,-6.2575,106.9837,good
20269981,SMKN 4 Kota Bekasi,Kota Bekasi,3275011003,-6.36,106.9321,very good
20271658,SMKN 8 Kota Bekasi,Kota Bekasi,3275031004,-6.2934,107.0007,good
69972531,SMAN 19 Kota Bekasi,Kota Bekasi,3275031004,-6.301,107.007,good
20269651,SMKN 6 Kota Bekasi,Kota Bekasi,3275040007,-6.2305,107.0351,good
20223040,SMAN 9 Bekasi,Kota Bekasi,3275031003,-6.2836,107.032,good
20253307,SMKN 3 Kota Bekasi,Kota Bekasi,3275031003,-6.2824,107.0258,good
20229220,SMKN 2 Depok,Kota Depok,3276010007,-6.40156,106.758478,good
20223819,SMAN 1 KOTA DEPOK,Kota Depok,3276020010,-6.395105,106.814587,good
20223817,SMAN 3 Kota Depok,Kota Depok,3276030006,-6.407567,106.841083,good
20276188,SMKN 3 Depok,Kota Depok,3276030009,-6.396779,106.843027,very good
69857939,SMAN 13 Kota Depok,Kota Depok,3276040010,-6.37693,106.873438,very good
20229168,SMAN 6 Kota Depok,Kota Depok,3276060004,-6.3702,106.7732,good
20270492,SMAN 8 Depok,Kota Depok,3276031004,-6.424513,106.846888,good
20276187,SMAN 9 Depok,Kota Depok,3276061001,-6.34698,106.780032,very good
20229166,SMAN 4 Kota Depok,Kota Depok,3276041007,-6.394382,106.882433,good
20268524,SMAN 7 Kota Depok,Kota Depok,3276041004,-6.397125,106.910203,good
20224509,SMAN 3 Tasikmalaya,Kota Tasikmalaya,3278031001,-7.3419,108.2513,very good
20276063,SMKN 4 Tasikmalaya,Kota Tasikmalaya,3278031002,-7.33,108.2541,very good
20225279,SMAN 1 Banjar,Kota Banjar,3279010005,-7.371295,108.526683,very good
20225278,SMAN 3 Banjar,Kota Banjar,3279010005,-7.371153,108.525928,very good
20229665,SMKN 2 Banjar,Kota Banjar,3279020001,-7.360291,108.529503,good
60728393,SMKN 4 Banjar,Kota Banjar,3279030007,-7.4107,108.5451,very good
20225280,SMAN 2 Banjar,Kota Banjar,3279040004,-7.3506,108.6363,very good
20254663,SMKN 3 Banjar,Kota Banjar,3279040004,-7.3513,108.635,very good
20203741,SMAN 1 Cibinong,Kabupaten Cianjur,3203050006,-7.3203,107.1293,good
20279928,SMKN 1 Cipeundeuy,Kabupaten Bandung Barat,3217150008,-6.7327,107.3534,very good
20212957,SMAN 1 Subang,Kabupaten Kuningan,3208050009,-7.1294,108.5253,good
20206151,SMAN 1 Baleendah,Kabupaten Bandung,3204140003,-7.0008,107.6226,good
20206226,SMKN 2 Baleendah,Kabupaten Bandung,3204140003,-7.0019,107.6244,good
20227900,SMAN 1 Nagreg,Kabupaten Bandung,3204101007,-7.0186,107.8904,good
20217461,SMAN 1 Bungursari,Kabupaten Purwakarta,3214112003,-6.4786,107.4793,good
20209183,SMAN 3 Garut,Kabupaten Garut,3205260006,-7.0886,107.9799,very good
20254620,SMKN 1 Cijulang,Kabupaten Pangandaran,3218020006,-7.7151,108.4731,very good
69963098,SMAN 1 Cidahu,Kabupaten Sukabumi,3202240006,-6.782,106.7294,very good
20219254,SMAN 2 Bandung,Kota Bandung,3273230001,-6.8891,107.6032,good
20251819,SMAN 10 Tasikmalaya,Kota Tasikmalaya,3278060001,-7.358046,108.173109,very good
20212959,SMAN 1 Luragung,Kabupaten Kuningan,3208080008,-7.0141,108.6204,very good
20256690,SLB Negeri Luragung,Kabupaten Kuningan,3208080008,-7.0154,108.6199,very good
69949162,SMKN 14 Kota Bekasi,Kota Bekasi,3275011001,-6.3897,106.9147,good
69974030,SMKN 3 Cikarang Barat,Kabupaten Bekasi,3216071010,-6.2533,107.1275,very good
20258153,SLB Negeri-B Kab Garut,Kabupaten Garut,3205181004,-7.2189,107.8982,good
69857937,SMAN 11 Depok,Kota Depok,3276050003,-6.383225,106.82739,good
69969278,SMAN Jamanis,Kabupaten Tasikmalaya,3206250007,-7.1755,108.1543,very good
20258460,SMA Terbuka (SMAN 4 Depok),Kota Depok,3276041003,-6.4235,106.8882,good
20267753,SLB Negeri Sukanegara,Kabupaten Cianjur,3203090010,-7.0848,107.1383,poor
20203734,SMAN 1 Sukanagara,Kabupaten Cianjur,3203090010,-7.0912,107.1359,good
20212963,SMAN 1 Jalaksana,Kabupaten Kuningan,3208160013,-6.9174,108.491,very good
20224112,SMAN 5 Cimahi,Kota Cimahi,3277020003,-6.8786,107.5447,good
20246369,SMKN 4 Kuningan,Kabupaten Kuningan,3208090017,-6.9566,108.6832,need check
69734350,SMKN 1 Cilebar,Kabupaten Karawang,3215161005,-6.151,107.4157,good
20216948,SLB Negeri Kab. Subang,Kabupaten Subang,3213070004,-6.5563,107.7658,very good
20224504,SMAN 8 Tasikmalaya,Kota Tasikmalaya,3278020005,-7.3781,108.2307,very good
20224599,SMKN 3 Tasikmalaya,Kota Tasikmalaya,3278020005,-7.381102,108.233065,very good
20203722,SMAN 1 Warungkondang,Kabupaten Cianjur,3203131001,-6.9079,107.0881,good
20212950,SMAN 1 Ciwaru,Kabupaten Kuningan,3208060011,-7.0862,108.6412,good
69968471,SMAN 1 Kaliwedi,Kabupaten Cirebon,3209231008,-6.56126,108.378869,very good
20203740,SMAN 1 Cibeber,Kabupaten Cianjur,3203120012,-6.9164,107.1217,very good
20212911,SMKN 3 Kuningan,Kabupaten Kuningan,3208130013,-6.9556,108.4866,very good
69888996,SMAN 1 Bojonggede,Kabupaten Bogor,3201220002,-6.4976,106.7788,good
20212912,SMKN 2 Kuningan,Kabupaten Kuningan,3208140002,-6.9799,108.461,good
20206211,SMAN 1 Lembang,Kabupaten Bandung Barat,3217120005,-6.8253,107.639,very good
69824839,SMAN 1 Saguling,Kabupaten Bandung Barat,3217071003,-6.8879,107.4224,very good
69952197,SMAN 20 Kota Bekasi,Kota Bekasi,3275070001,-6.2009,106.9901,good
69755585,SMKN 11 Kota Bekasi,Kota Bekasi,3275070001,-6.2109,106.9877,good
20212939,SMAN 1 Ciawigebang,Kabupaten Kuningan,3208100015,-6.974,108.5894,very good
20252030,SMKN 1 Cilaku,Kabupaten Cianjur,3203140001,-6.8709,107.1261,good
20252032,SMKN 1 Cikalong Kulon,Kabupaten Cianjur,3203240002,-6.7304,107.209,very good
69969191,SLB Negeri Cipatujah,Kabupaten Tasikmalaya,3206100004,-7.44,108.01,very good
20224514,SMAN 9 Tasikmalaya,Kota Tasikmalaya,3278070006,-7.3067,108.2123,good
69948380,SMKN 15 Kota Bekasi,Kota Bekasi,3275031002,-6.313261,107.025507,good
69734353,SMKN 1 Batujaya,Kabupaten Karawang,3215190003,-6.0873,107.2138,good
20254692,SMKN 1 Luragung,Kabupaten Kuningan,3208080016,-7.0071,108.675,need check
20212960,SMAN 1 Lebakwangi,Kabupaten Kuningan,3208110014,-7.0276,108.5858,very good
60724655,SLB Negeri Kota Banjar,Kota Banjar,3279030005,-7.3732,108.5545,good
20224510,SMAN 2 Tasikmalaya,Kota Tasikmalaya,3278070005,-7.3021,108.2029,good
20252029,SMKN 1 Pacet,Kabupaten Cianjur,3203220004,-6.7242,107.0656,very good
69984099,SMAN 2 Setu,Kabupaten Bekasi,3216010013,-6.327831,107.046264,very good
69948448,SMAN 1 Sukra,Kabupaten Indramayu,3212220002,-6.2971,107.9355,good
69987056,SMKN 1 Kalipucang (USB),Kabupaten Pangandaran,3218080006,-7.637444,108.744416,very good
20279827,SMKN 1 Cilimus,Kabupaten Kuningan,3208170020,-6.8621,108.5053,very good
20202315,SLB Negeri Mutiara Bahari Mandiri,Kabupaten Sukabumi,3202110013,-7.015072,106.544228,very good
20263125,SLB Negeri Kab.Ciamis,Kabupaten Ciamis,3207210004,-7.3269,108.3361,good
20268139,SLB Negeri Kab. Tasikmalaya,Kabupaten Tasikmalaya,3206250005,-7.1861,108.1843,very good
69892762,SMKN 1 Cikalong,Kabupaten Tasikmalaya,3206030011,-7.7989,108.2686,poor
20227908,SMAN 1 Ngamprah,Kabupaten Bandung Barat,3217100003,-6.8579,107.5291,good
20224614,SMKN 1 Tasikmalaya,Kota Tasikmalaya,3278080003,-7.3078,108.217,good
69877402,SMKN Cijambe,Kabupaten Subang,3213050003,-6.6645,107.7584,good
20214795,SMKN 1 Mundu,Kabupaten Cirebon,3209090008,-6.7508,108.589,good
20212962,SMAN 1 Kadugede,Kabupaten Kuningan,3208020014,-7.0049,108.4506,good
69962245,SMAN 1 Cantigi,Kabupaten Indramayu,3212161005,-6.3508,108.277,very good
20224139,SMAN 2 Cimahi,Kota Cimahi,3277020004,-6.8821,107.5343,very good
20252868,SMKN 1 Sukanagara,Kabupaten Cianjur,3203090007,-7.1201,107.0997,need check
20252031,SMKN 1 Pagelaran,Kabupaten Cianjur,3203100013,-7.1784,107.1357,very good
20271880,SLB Negeri Pangeran Cakrabuana,Kabupaten Cirebon,3209141007,-6.725197,108.448197,very good
20269714,SMKN 1 Cipatujah,Kabupaten Tasikmalaya,3206010009,-7.6817,108.0494,very good
69830365,SMKN 2 Cibinong,Kabupaten Bogor,3201210001,-6.521332,106.816,good
20230406,SLB Negeri Kabupaten Bogor,Kabupaten Bogor,3201210001,-6.521287,106.806202,very good
20253658,SMKN Pertanian 1 Sukaraja,Kabupaten Sukabumi,3202170013,-6.915796,106.963074,good
20212958,SMAN 1 Mandirancan,Kabupaten Kuningan,3208180014,-6.8162,108.473,good
69847637,SMKN 1 Cileungsi,Kabupaten Bogor,3201180012,-6.431972,107.018904,very good
20252192,SMAN 1 Kadupandak,Kabupaten Cianjur,3203070012,-7.2541,107.0472,need check
69851425,SMAN 10 Depok,Kota Depok,3276011005,-6.39324,106.732277,good
69954820,SMAN 1 Gabuswetan,Kabupaten Indramayu,3212030003,-6.4389,108.0756,very good
20224506,SMAN 6 Tasikmalaya,Kota Tasikmalaya,3278070013,-7.2729,108.188,good
20212938,SMAN 1 Cigugur,Kabupaten Kuningan,3208140001,-6.9826,108.4627,good
20231616,SLB Negeri Bekasi Jaya,Kota Bekasi,3275040006,-6.2279,107.0168,good
69965414,SMAN 2 Cibitung,Kabupaten Bekasi,3216070016,-6.2298,107.1069,very good
69888854,SMAN 1 Lelea,Kabupaten Indramayu,3212050002,-6.50428,108.222124,good
69888924,SMKN 1 Cipatat,Kabupaten Bandung Barat,3217080010,-6.8147,107.3433,very good
20276107,SLB Negeri Taman Sari,Kota Tasikmalaya,3278020004,-7.3889,108.2371,very good
20258187,SLB Negeri Budi Utama,Kota Cirebon,3274040001,-6.7412,108.5435,very good
69734354,SMKN 1 Purwasari,Kabupaten Karawang,3215090001,-6.3298,107.4168,very good
20258288,SLB Negeri Kapten Halim,Kabupaten Purwakarta,3214090015,-6.5683,107.456,good
20252202,SMAN 1 Mande,Kabupaten Cianjur,3203180009,-6.7632,107.2378,very good
69966267,SMKN 2 Cipunagara,Kabupaten Subang,3213150006,-6.4882,107.8508,need check
20224507,SMAN 5 Tasikmalaya,Kota Tasikmalaya,3278040003,-7.332,108.2223,good
20224511,SMAN 1 Tasikmalaya,Kota Tasikmalaya,3278040003,-7.3325,108.2235,good
20252161,SMKN 6 Kuningan,Kabupaten Kuningan,3208181006,-6.8063,108.5004,very good
20259613,SLB Negeri Cileunyi,Kabupaten Bandung,3204290006,-6.9389,107.7249,good
20252505,SMKN 1 Cijati,Kabupaten Cianjur,3203080003,-7.1538,107.0152,need check
69964390,SMAN 1 Karangtengah,Kabupaten Cianjur,3203190012,-6.7847,107.2019,very good
20253129,SLB Negeri Handayani Kab Sukabumi,Kabupaten Sukabumi,3202210010,-6.89575,106.816634,good
20202278,SMKN 1 Cibadak,Kabupaten Sukabumi,3202210010,-6.8941,106.8158,very good
20252384,SMKN 1 Cugenang,Kabupaten Cianjur,3203210008,-6.8071,107.0524,very good
20258252,SLB Negeri Surade Kabupaten Sukabumi,Kabupaten Sukabumi,3202030013,-7.336018,106.56027,very good
69888738,SMKN Kasomalang,Kabupaten Subang,3213031007,-6.6925,107.7336,good
20212937,SMAN 1 Cilimus,Kabupaten Kuningan,3208170017,-6.8748,108.4984,good
20203744,SMAN 1 Pacet,Kabupaten Cianjur,3203220014,-6.7014,107.0527,very good
20202251,SMAN Warung Kiara,Kabupaten Sukabumi,3202120008,-6.9771,106.7193,very good
60725448,SMKN 1 Agrabinta,Kabupaten Cianjur,3203040003,-7.418,107.3717,need check
69904742,SMKN 12 Kota Bekasi,Kota Bekasi,3275010009,-6.2709,106.9204,good
20267751,SLB Negeri Kab Cirebon,Kabupaten Cirebon,3209060014,-6.8368,108.6195,very good
20252398,SMKN 1 Cipanas,Kabupaten Cianjur,3203221005,-6.7232,107.0313,good
20252519,SMAN 15 Kota Bekasi,Kota Bekasi,3275030001,-6.3488402,106.9775659,good
69983821,SMAN 9 Tambun Selatan,Kabupaten Bekasi,3216081008,-6.253,107.0673,good
20280593,SLB Negeri-A Kota Bandung,Kota Bandung,3273190002,-6.9064,107.6026,good
20224600,SMKN 2 Tasikmalaya,Kota Tasikmalaya,3278040001,-7.358,108.2295,good
69888925,SMKN 1 Cisarua,Kabupaten Bandung Barat,3217130002,-6.8106,107.5679,good
69962280,SMAN 1 Tanjungsari,Kabupaten Bogor,3201161006,-6.5695,107.145,very good
20224508,SMAN 4 Tasikmalaya,Kota Tasikmalaya,3278050005,-7.3304,108.207,very good
20252867,SMKN 1 Takokak,Kabupaten Cianjur,3203080008,-7.0497,107.0022,good
20252392,SMKN 1 Leles,Kabupaten Cianjur,3203011009,-7.3091,107.0167,need check
20254134,SMAN 5 Terbuka Depok,Kota Depok,3276010004,-6.4171,106.758,good
69761934,SMAN 1 Pasirkuda,Kabupaten Cianjur,3203061007,-7.1992,107.1996,need check
20229818,SLB Negeri Depok,Kota Depok,3276021004,-6.425913,106.81474300000001,good
20203743,SMAN 1 Ciranjang,Kabupaten Cianjur,3203170011,-6.8181,107.247,very good
20219231,SMK PU Negeri Provinsi Jawa Barat,Kota Bandung,3273160007,-6.9175,107.6323,good
20256802,SLB Negeri Taruna Mandiri,Kabupaten Kuningan,3208170021,-6.8576,108.4979,good
20258141,SLB Negeri Garut Kota,Kabupaten Garut,3205181007,-7.190868,107.905073,good
20224114,SMAN 3 Cimahi,Kota Cimahi,3277030002,-6.874,107.5599,good
69888376,SMKN 2 Pacet,Kabupaten Cianjur,3203220008,-6.7497,107.0212,very good
69756137,SMKN 1 Rongga,Kabupaten Bandung Barat,3217010002,-7.0011,107.2721,very good
20224505,SMAN 7 Tasikmalaya,Kota Tasikmalaya,3278010005,-7.3901,108.2043,very good
20252869,SMKN 1 Cikadu,Kabupaten Cianjur,3203051004,-7.3227,107.2564,good
69975633,SMKN 2 Setu,Kabupaten Bekasi,3216010006,-6.369032,107.009287,good
69955278,SMKN 1 Kemang,Kabupaten Bogor,3201230010,-6.5006,106.7482,very good
20246370,SMKN 5 Kuningan,Kabupaten Kuningan,3208100019,-6.9645,108.5751,very good
20252210,SMKN 1 Tanggeung,Kabupaten Cianjur,3203060004,-7.2637,107.1189,very good
69964365,SMAN 1 Salopa,Kabupaten Tasikmalaya,3206140005,-7.5441,108.3241,need check
69849084,SMKN 1 Jatiluhur,Kabupaten Purwakarta,3214010007,-6.5191,107.4103,good
69852111,SMKN 1 Sindang Barang,Kabupaten Cianjur,3203020007,-7.467745,107.204661,very good
69974158,SMAN 4 Subang,Kabupaten Subang,3213070006,-6.546718,107.736061,good
69926270,SMAN 2 Cileungsi,Kabupaten Bogor,3201180020,-6.3942,106.9778,very good
69753766,SLB Negeri Kabupaten Bekasi,Kabupaten Bekasi,3216021007,-6.3775,107.1137,good
20252399,SMKN 1 Campaka,Kabupaten Cianjur,3203110007,-6.9978,107.1391,good
20212954,SMAN 1 Cibingbin,Kabupaten Kuningan,3208070011,-7.0558,108.7502,very good
20252652,SMKN 1 Naringgul,Kabupaten Cianjur,3203040004,-7.2847,107.3857,need check
20206212,SMAN 1 Gunung Halu,Kabupaten Bandung Barat,3217020004,-7.0161,107.3074,very good
69849572,SMKN 3 Linggabuana,Kabupaten Purwakarta,3214100013,-6.5184,107.4522,very good
20251992,SLB Negeri Pahlawan,Kabupaten Indramayu,3212150011,-6.3373,108.3337,good
69734352,SMKN 1 Jayakerta,Kabupaten Karawang,3215151004,-6.0941,107.3149,very good
69786715,SLB Negeri Kab. Bandung Barat,Kabupaten Bandung Barat,3217080002,-6.8413,107.3654,very good
20203874,SMKN 1 Cidaun,Kabupaten Cianjur,3203030005,-7.4695,107.2875,need check
20212956,SMAN 2 Kuningan,Kabupaten Kuningan,3208130005,-6.9793,108.4853,very good
20212961,SMAN 1 Kuningan,Kabupaten Kuningan,3208130005,-6.9778,108.4823,very good
20212955,SMAN 3 Kuningan,Kabupaten Kuningan,3208130005,-6.9767,108.4839,very good
20252870,SMKN 1 Sukaluyu,Kabupaten Cianjur,3203150007,-6.8076,107.2284,very good
20252207,SMKN 1 Karangtengah,Kabupaten Cianjur,3203190011,-6.7641,107.2349,very good
20258497,SLB Negeri Cinta Asih,Kabupaten Bandung,3204190007,-7.034627,107.531428,good
20224113,SMAN 1 Cimahi,Kota Cimahi,3277020006,-6.8706,107.5439,very good
20270931,SLBN 2 SENTRA PKPLK,Kota Cimahi,3277020006,-6.8722,107.5421,good
20212949,SMAN 1 Ciniru,Kabupaten Kuningan,3208030014,-7.0451,108.4987,good
69849083,SMKN 1 Campaka,Kabupaten Purwakarta,3214110023,-6.4339,107.5226,good
20258253,SLB Negeri Kab. Purwakarta,Kabupaten Purwakarta,3214100009,-6.5392,107.4453,good
26017001,SLBN-B Cicendo,Kota Bandung,3273170003,-6.9149,107.6189,good
69973159,SMKN 1 Kapetakan,Kabupaten Cirebon,3209180020,-6.5531,108.4997,good
69888737,SMKN 1 Compreng,Kabupaten Subang,3213160007,-6.3731,107.8796,very good
20224109,SMAN 4 Cimahi,Kota Cimahi,3277010004,-6.9025,107.5221,very good
69849091,SMKN 1 Darangdan,Kabupaten Purwakarta,3214060001,-6.729378,107.498516,very good
20203733,SMAN 1 Sukaresmi,Kabupaten Cianjur,3203230005,-6.7198,107.0762,very good
20238571,SMKN 2 Cimahi,Kota Cimahi,3277030003,-6.8516,107.5505,very good
20224135,SMKN 3 Cimahi,Kota Cimahi,3277030003,-6.8618,107.5565,very good
58570036,SLB Negeri-A Citeureup Kota Cimahi,Kota Cimahi,3277030003,-6.8608625,107.5567915,good
20268872,SMKN 1 Japara,Kabupaten Kuningan,3208161004,-6.8968,108.5205,good
20216939,SMAN 1 Purwadadi,Kabupaten Subang,3213120002,-6.4653,107.6896,good
69762682,SMKN 1 Pasirkuda,Kabupaten Cianjur,3203020005,-7.4402,107.1235,need check
20224108,SMAN 6 Cimahi,Kota Cimahi,3277010001,-6.9242,107.5629,good
69878008,SMKN Cibogo,Kabupaten Subang,3213060002,-6.5703,107.8462,very good
69950346,SMAN 21 Kota Bekasi,Kota Bekasi,3275010008,-6.282,106.9331,good
20253827,SMAN 1 Darma,Kabupaten Kuningan,3208010008,-7.018,108.3928,good
20244700,SMKN 1 Lemahabang,Kabupaten Cirebon,3209060015,-6.8291,108.6209,good
20216947,SLB Negeri Trituna,Kabupaten Subang,3213070002,-6.5778,107.7697,very good
69947763,SMKN 13 Kota Bekasi,Kota Bekasi,3275061003,-6.196931,106.974447,good
20212913,SMKN 1 Kuningan,Kabupaten Kuningan,3208140007,-6.9735,108.454,good
20223043,SMAN 6 Kota Bekasi,Kota Bekasi,3275030003,-6.3378,106.9751,good
20235632,SMKN Situraja,Kabupaten Sumedang,3211070017,-6.8343,107.9996,very good
20208407,SMAN Tanjungkerta,Kabupaten Sumedang,3211170003,-6.7655,107.89,very good
20269696,SMKN 7 Kota Bekasi,Kota Bekasi,3275020001,-6.3263,106.9568,good
20264429,SLB Negeri 2 Kab Indramayu,Kabupaten Indramayu,3212150012,-6.3337,108.3299,good
20258272,SLB Negeri Widi Asih,Kabupaten Pangandaran,3218050006,-7.6570391,108.5499764,poor
20213878,SLB Negeri Majalengka,Kabupaten Majalengka,3210070013,-6.8323,108.2133,good
69786714,SLB Negeri Kab. Karawang,Kabupaten Karawang,3215051008,-6.3665,107.395,very good
69900111,SMKN 4 Depok,Kota Depok,3276041007,-6.396328,106.894918,good
20235576,SLB Negeri-B Sumedang,Kabupaten Sumedang,3211160022,-6.7995,107.9502,very good
20235575,SLB Negeri-B Pembina,Kabupaten Sumedang,3211160022,-6.799,107.9502,very good
69758208,SLB Negeri Perbatasan,Kabupaten Kuningan,3208070004,-7.0619,108.7574,very good
69964651,SMAN 1 Bojong Picung,Kabupaten Cianjur,3203160007,-6.8668,107.2381,very good
20224136,SMKN 1 Cimahi,Kota Cimahi,3277010003,-6.9023,107.5385,good
69883636,SMKN 2 Leles,Kabupaten Cianjur,3203180004,-6.770649,107.162937,need check
20258453,SMKN Pertanian Lembang,Kabupaten Bandung Barat,3217120011,-6.8059,107.6371,very good
69965794,SMAN 7 Tambun Selatan,Kabupaten Bekasi,3216081009,-6.2306,107.0605,very good
69977456,SMKN 15 Garut,Kabupaten Garut,3205080001,-7.654536,107.751491,very good
69965194,SMAN 2 Lembang,Kabupaten Bandung Barat,3217120007,-6.8127,107.6186,good
20203745,SMAN 1 Sindang Barang,Kabupaten Cianjur,3203020006,-7.4522,107.1384,good
20203873,SMKN 2 Cilaku,Kabupaten Cianjur,3203140007,-6.8502,107.1343,good
20203742,SMAN 1 Cilaku,Kabupaten Cianjur,3203140007,-6.8485,107.1361,good
69954894,SMAN 1 Leuwisadeng,Kabupaten Bogor,3201021003,-6.5746,106.5992,very good
69986555,SMAN 2 Jonggol,Kabupaten Bogor,3201170011,-6.450524,107.042297,very good
20212951,SMAN 1 Garawangi,Kabupaten Kuningan,3208120010,-6.9998,108.5421,very good
20206225,SMKN 3 Baleendah,Kabupaten Bandung,3204140003,-7.002297,107.622635,good
20254167,SMAN 2 Majalaya,Kabupaten Bandung,3204120002,-7.0785,107.7366,good
